,address,confidence,fields_used,lat,lng,ok,quality
0,"10 SE 2nd Avenue, Gainesville, FL, 32601, USA",0,5,29.650288,-82.324885,,
1,"2004 Mowry Road, Gainesville, FL 32610, USA",0,4,29.474779,-82.860619,,
2,"224 SE 24th Street, Gainesville, FL, 32641, USA",0,5,29.650024,-82.293328,,
3,"318 NW 13th Street, Gainesville, FL",10,3,29.676777,-82.3390438,,
4,"530 NW 2nd Street, Gainesville, FL, 32601, USA",0,5,29.656046,-82.323191,,
